{
"positions": [
{"lat":"35.8249273","lng":"128.743037","addr":"경북 경산시 남매로 158(경산시보건소)","phone":"053-810-6363","field5":"","field6":""}
,
{"lat":"35.8415652","lng":"128.784593","addr":"경북 경산시 압량면 가일길 128  (가일보건진료소)","phone":"053-817-8539","field5":"","field6":""}
,
{"lat":"35.7583293","lng":"128.749577","addr":"경북 경산시 남천면 관방로 1150  (금곡보건진료소)","phone":"053-813-9577","field5":"","field6":""}
,
{"lat":"35.7932637","lng":"128.837376","addr":"경북 경산시 남산면 하남로 323 (남산보건지소)","phone":"053-810-6656","field5":"","field6":""}
,
{"lat":"35.7665281","lng":"128.727223","addr":"경북 경산시 남천면 남천로 465(남천보건지소)","phone":"053-810-6658","field5":"","field6":""}
,
{"lat":"35.8713478","lng":"128.848919","addr":"경북 경산시 진량읍 다문로70길 66  (다문보건진료소)","phone":"053-852-9936","field5":"","field6":""}
,
{"lat":"35.7642732","lng":"128.830983","addr":"경북 경산시 남산면 대왕로 339-9 (대왕보건진료소)","phone":"053-856-5806","field5":"","field6":""}
,
{"lat":"35.8576861","lng":"128.826585","addr":"경북 경산시 진량읍 진성로 232  (대원보건진료소)","phone":"053-856-4060","field5":"","field6":""}
,
{"lat":"35.8104128","lng":"128.879875","addr":"경북 경산시 용성면 용대로 220  (도덕보건진료소)","phone":"053-852-1986","field5":"","field6":""}
,
{"lat":"35.9616248","lng":"128.807129","addr":"경북 경산시 와촌면 박사길 50  (박사보건진료소)","phone":"053-852-4229","field5":"","field6":""}
,
{"lat":"35.8444874","lng":"128.761195","addr":"경북 경산시 압량면 부적길 56, 압량면대  (압량보건지소)","phone":"053-817-2324","field5":"","field6":""}
,
{"lat":"35.9466497","lng":"128.836753","addr":"경북 경산시 와촌면 금송로 416  (와촌보건지소)","phone":"053-853-1144","field5":"","field6":""}
,
{"lat":"35.7950674","lng":"128.875234","addr":"경북 경산시 용성면 용성당리1길 26(용성보건지소)","phone":"053-852-1054","field5":"","field6":""}
,
{"lat":"35.7647462","lng":"128.913517","addr":"경북 경산시 용성면 육동로 643  (육동보건진료소)","phone":"053-852-1488","field5":"","field6":""}
,
{"lat":"35.8591346","lng":"128.796842","addr":"경북 경산시 압량면 의송길 92  (의송보건진료소)","phone":"053-817-4753","field5":"","field6":""}
,
{"lat":"35.8211263","lng":"128.82255","addr":"경북 경산시 자인면 일연로 82  (자인보건지소)","phone":"053-856-6947","field5":"","field6":""}
,
{"lat":"35.7922855","lng":"128.812756","addr":"경북 경산시 남산면 전지길 64  (전지보건진료소)","phone":"053-852-4824","field5":"","field6":""}
,
{"lat":"35.8748426","lng":"128.813527","addr":"경북 경산시 진량읍 다문로 21  (진량보건지소)","phone":"053-852-8328","field5":"","field6":""}
,
{"lat":"35.912209","lng":"128.812485","addr":"경북 경산시 하양읍 문화로 36(하양보건지소)","phone":"053-853-3010","field5":"","field6":""}

]
}
