{
    "positions": [
{"name":"경산초등학교","addr":"경상북도 경산시 경안로 84","lat":"35.81444035","lng":"128.7401526"}
,
{"name":"남성초등학교","addr":"경상북도 경산시 원효로 375","lat":"35.81342793","lng":"128.7765508"}
,
{"name":"자인초등학교","addr":"경상북도 경산시 금학로 7","lat":"35.8212272","lng":"128.8239062"}
,
{"name":"용성초등학교","addr":"경상북도 경산시 원효로 1405","lat":"35.79411588","lng":"128.873934"}
,
{"name":"남산초등학교","addr":"경상북도 경산시 하남로 316","lat":"35.79321018","lng":"128.8362801"}
,
{"name":"진성초등학교","addr":"경상북도 경산시 진성로 115-1","lat":"35.85373689","lng":"128.8151558"}
,
{"name":"부림초등학교","addr":"경상북도 경산시 문천길 24","lat":"35.89819252","lng":"128.825448"}
,
{"name":"와촌초등학교","addr":"경상북도 경산시 금송로 452-3","lat":"35.94860894","lng":"128.8366815"}
,
{"name":"계당초등학교","addr":"경상북도 경산시 계당길 27","lat":"35.92842624","lng":"128.8513369"}
,
{"name":"하양초등학교","addr":"경상북도 경산시 대학로 305길 25","lat":"35.91283005","lng":"128.8194239"}
,
{"name":"현흥초등학교","addr":"경상북도 경산시 대학로 624","lat":"35.86167631","lng":"128.7729756"}
,
{"name":"서부초등학교","addr":"경상북도 경산시 경산로 42길 22-11","lat":"35.82633835","lng":"128.7291702"}
,
{"name":"동부초등학교","addr":"경상북도 경산시 원효로 28길 60-6","lat":"35.81809776","lng":"128.749233"}
,
{"name":"장산초등학교","addr":"경상북도 경산시 성암로 8길 25","lat":"35.82109108","lng":"128.7237123"}
,
{"name":"남천초등학교","addr":"경상북도 경산시 남천로 481","lat":"35.76790125","lng":"128.7259359"}
,
{"name":"경산압량초등학교","addr":"경상북도 경산시 압독로2로 38","lat":"35.84257846","lng":"128.761058"}
,
{"name":"정평초등학교","addr":"경상북도 경산시 대학로 16길 15","lat":"35.83303119","lng":"128.7305991"}
,
{"name":"대동초등학교","addr":"경상북도 경산시 박사길 5길 563-14","lat":"35.9593644","lng":"128.803672"}
,
{"name":"하주초등학교","addr":"경상북도 경산시 무학로 48","lat":"35.92012568","lng":"128.8126451"}
,
{"name":"하양초교화성분교","addr":"경상북도 경산시 화성로 171","lat":"35.88606263","lng":"128.790337"}
,
{"name":"중앙초등학교","addr":"경상북도 경산시 중앙초등길 9","lat":"35.82330173","lng":"128.7316603"}
,
{"name":"금락초등학교","addr":"경상북도 경산시 대학로 296길 9-5","lat":"35.91125046","lng":"128.8240821"}
,
{"name":"청천초등학교","addr":"경상북도 경산시 대경로 187","lat":"35.884441","lng":"128.773262"}
,
{"name":"진량초등학교","addr":"경상북도 경산시 낙산길 37","lat":"35.87617777","lng":"128.815629"}
,
{"name":"임당초등학교","addr":"경상북도 경산시 임당로 12길 7","lat":"35.84190125","lng":"128.7432337"}
,
{"name":"다문초등학교","addr":"경상북도 경산시 다문로 70길 85","lat":"35.87114157","lng":"128.8510386"}
,
{"name":"성암초등학교","addr":"경상북도 경산시 삼성현로 110","lat":"35.82287929","lng":"128.7160943"}
,
{"name":"사동초등학교","addr":"경상북도 경산시 백양로 33길 32","lat":"35.81347119","lng":"128.7607534"}
,
{"name":"옥곡초등학교","addr":"경상북도 경산시 경산로 54","lat":"35.81530967","lng":"128.7323745"}
,
{"name":"봉황초등학교","addr":"경상북도 경산시 봉황길 50","lat":"35.88350587","lng":"128.8232816"}
,
{"name":"평산초등학교","addr":"경상북도 경산시 솔숲길 47","lat":"35.8068407","lng":"128.7572441"}
,
{"name":"계양유치원","addr":"경상북도 경산시 원료로 32길 24","lat":"35.818906","lng":"128.7527989"}
,
{"name":"동화나라유치원","addr":"경상북도 경산시 대학로 13길 16","lat":"35.83594293","lng":"128.7303663"}
,
{"name":"경산유치원","addr":"경상북도 경산시 삼풍로 25","lat":"35.82288937","lng":"128.7552881"}
,
{"name":"계명유치원","addr":"경상북도 경산시 대학로 12길 16","lat":"35.832558","lng":"128.729046"}
,
{"name":"대해유치원","addr":"경상북도 경산시 성암로 12길 17-5","lat":"35.82224493","lng":"128.7243126"}
,
{"name":"동산유치원","addr":"경상북도 경산시 황제길 86-3","lat":"35.860715","lng":"128.817925"}
,
{"name":"성화유치원","addr":"경상북도 경산시 성암로 40","lat":"35.82249741","lng":"128.7220511"}
,
{"name":"서부유치원","addr":"경상북도 경산시 경산로 13길 12","lat":"35.81490206","lng":"128.7303626"}
,
{"name":"황제유치원","addr":"경상북도 경산시 황제1길 86-33","lat":"35.85675009","lng":"128.8182021"}
,
{"name":"정원유치원","addr":"경상북도 경산시 삼성현로 31길 4","lat":"35.81858901","lng":"128.721109"}
,
{"name":"동부유치원","addr":"경상북도 경산시 계양로 8길 63","lat":"35.81622787","lng":"128.7543365"}
,
{"name":"예인유치원","addr":"경상북도 경산시 대학로 295길 62","lat":"35.9083326","lng":"128.8170768"}
,
{"name":"은성유치원","addr":"경상북도 경산시 계양로 16길 58-2","lat":"35.81931237","lng":"128.7541555"}
,
{"name":"중방유치원","addr":"경상북도 경산시 대학로 32길 35","lat":"35.83099604","lng":"128.7392388"}
,
{"name":"하양유치원","addr":"경상북도 경산시 하양로 119-9","lat":"35.91468379","lng":"128.819591"}
,
{"name":"한사유치원","addr":"경상북도 경산시 교리길 22","lat":"35.924955","lng":"128.821771"}
,
{"name":"경산중앙유치원","addr":"경상북도 경산시 강변동로 358","lat":"35.83993675","lng":"128.7291444"}
,
{"name":"라온유치원","addr":"경상북도 경산시 청운2로 7길 13-2","lat":"35.84106036","lng":"128.7509888"}
,
{"name":"경산성모유치원","addr":"경상북도 경산시 경산로 118","lat":"35.81918586","lng":"128.7296236"}
,
{"name":"대신대학교부설유치원","addr":"경상북도 경산시 성암로11길 15","lat":"35.82460751","lng":"128.721686"}
,
{"name":"동부어린이집","addr":"경상북도 경산시 장산로 224","lat":"35.818751","lng":"128.749063"}
,
{"name":"전원어린이집","addr":"경상북도 경산시 경천로 222길 71","lat":"35.80178009","lng":"128.7463226"}
,
{"name":"시립진량어린이집","addr":"경상북도 경산시 공단6로 24길 21","lat":"35.86990355","lng":"128.827438"}
,
{"name":"삼성현초등학교","addr":"경상북도 경산시 경청로 216길 20","lat":"35.79990141","lng":"128.7395058"}
,
{"name":"동심유치원","addr":"경상북도 경산시 성암로 8길 28(옥산동)","lat":"35.82056767","lng":"128.7231367"}
,
{"name":"영인유치원","addr":"경상북도 경산시 미래로 47(사동)","lat":"35.80971098","lng":"128.7609249"}
,
{"name":"대자연유치원","addr":"경상북도 경산시 갑못둑길 55(압량면)","lat":"35.83388167","lng":"128.7702593"}
,
{"name":"삼현유치원","addr":"경상북도 경산시 백천길81","lat":"35.80112666","lng":"128.7405839"}
,
{"name":"꽃재유치원","addr":"경상북도 경산시 대학로 305길 25","lat":"35.91296234","lng":"128.8195842"}
,
{"name":"운문유치원","addr":"경상북도 경산시 장산로 347","lat":"35.81419832","lng":"128.7614355"}
,
{"name":"책놀이숲놀이유치원","addr":"경상북도 경산시 남매로 6길 29","lat":"35.8120742","lng":"128.7435416"}
,
{"name":"본유치원","addr":"경상북도 경산시 선비길 25","lat":"35.81683959","lng":"128.7264084"}

]
}
